{"type":"FeatureCollection","features":[{"type":"Feature","id":0,"geometry":{"type":"Point","coordinates":[-63.424079386585618,-17.181703817474613]},"properties":{"FID":0,"OBJECTID":1871,"NOM_CEN_PO":"EL COLORADO","COD_INE":"5588883447-D"}},{"type":"Feature","id":1,"geometry":{"type":"Point","coordinates":[-63.460371193588458,-17.181212996434056]},"properties":{"FID":1,"OBJECTID":1872,"NOM_CEN_PO":"LA ESPERANZA","COD_INE":"5585397517-D"}},{"type":"Feature","id":2,"geometry":{"type":"Point","coordinates":[-63.430368809106028,-17.13283754743145]},"properties":{"FID":2,"OBJECTID":1955,"NOM_CEN_PO":"AZUBI","COD_INE":"5620606935-D"}},{"type":"Feature","id":3,"geometry":{"type":"Point","coordinates":[-63.599518806101571,-17.107300540318477]},"properties":{"FID":3,"OBJECTID":2000,"NOM_CEN_PO":"SANTA ROSA DEL SARA","COD_INE":"5617703038-D"}},{"type":"Feature","id":4,"geometry":{"type":"Point","coordinates":[-63.398968214507931,-17.083072124313844]},"properties":{"FID":4,"OBJECTID":2029,"NOM_CEN_PO":"ASUBI","COD_INE":"5656839403-D"}},{"type":"Feature","id":5,"geometry":{"type":"Point","coordinates":[-63.482855462448811,-17.072143483409604]},"properties":{"FID":5,"OBJECTID":2049,"NOM_CEN_PO":"LOMA ALTA","COD_INE":"5655628256-D"}},{"type":"Feature","id":6,"geometry":{"type":"Point","coordinates":[-63.5006279289193,-17.066446208938203]},"properties":{"FID":6,"OBJECTID":2060,"NOM_CEN_PO":"LOMA ALTA","COD_INE":"5655628214-D"}},{"type":"Feature","id":7,"geometry":{"type":"Point","coordinates":[-63.664518135479625,-17.049999624577367]},"properties":{"FID":7,"OBJECTID":2091,"NOM_CEN_PO":"RANCHO GRANDE","COD_INE":"5656938650-D"}},{"type":"Feature","id":8,"geometry":{"type":"Point","coordinates":[-63.512744603921817,-17.04660008629611]},"properties":{"FID":8,"OBJECTID":2096,"NOM_CEN_PO":"PALOMETA","COD_INE":"5678342965-D"}},{"type":"Feature","id":9,"geometry":{"type":"Point","coordinates":[-63.639795001434038,-17.033279543193942]},"properties":{"FID":9,"OBJECTID":2114,"NOM_CEN_PO":"SIND 1º DE MAYO","COD_INE":"5666439105-D"}},{"type":"Feature","id":10,"geometry":{"type":"Point","coordinates":[-63.525870128007853,-17.031666455060474]},"properties":{"FID":10,"OBJECTID":2117,"NOM_CEN_PO":"PALOMETAS","COD_INE":"5679383939-D"}},{"type":"Feature","id":11,"geometry":{"type":"Point","coordinates":[-63.69303615983921,-17.030955692001669]},"properties":{"FID":11,"OBJECTID":2121,"NOM_CEN_PO":"SANTA ROSITA","COD_INE":"5662991302-D"}},{"type":"Feature","id":12,"geometry":{"type":"Point","coordinates":[-63.698893541323855,-17.0254022545422]},"properties":{"FID":12,"OBJECTID":2136,"NOM_CEN_PO":"BELLAS NIGUAS","COD_INE":"5666212105-D"}},{"type":"Feature","id":13,"geometry":{"type":"Point","coordinates":[-63.633199436888333,-17.02499781250873]},"properties":{"FID":13,"OBJECTID":2140,"NOM_CEN_PO":"LAS PETAS","COD_INE":"5672665657-D"}},{"type":"Feature","id":14,"geometry":{"type":"Point","coordinates":[-63.552641015222889,-17.010124051278069]},"properties":{"FID":14,"OBJECTID":2166,"NOM_CEN_PO":"RINCON DE PALOMETAS","COD_INE":"5690404844-D"}},{"type":"Feature","id":15,"geometry":{"type":"Point","coordinates":[-63.617795519613765,-16.978022805622004]},"properties":{"FID":15,"OBJECTID":2211,"NOM_CEN_PO":"SANTA ROSA","COD_INE":"5706487440-D"}},{"type":"Feature","id":16,"geometry":{"type":"Point","coordinates":[-63.827289020947376,-16.976165452468308]},"properties":{"FID":16,"OBJECTID":2215,"NOM_CEN_PO":"LA PLANCHADA","COD_INE":"5688166767-D"}},{"type":"Feature","id":17,"geometry":{"type":"Point","coordinates":[-63.647333950057828,-16.96999617195786]},"properties":{"FID":17,"OBJECTID":2222,"NOM_CEN_PO":"SINDICATO NAZARETH","COD_INE":"5708635975-D"}},{"type":"Feature","id":18,"geometry":{"type":"Point","coordinates":[-63.65537152872281,-16.967906109784963]},"properties":{"FID":18,"OBJECTID":2226,"NOM_CEN_PO":"LAS PIEDRAS","COD_INE":"5709315261-D"}},{"type":"Feature","id":19,"geometry":{"type":"Point","coordinates":[-63.86806013132076,-16.967732940770588]},"properties":{"FID":19,"OBJECTID":2227,"NOM_CEN_PO":"PALACIOS","COD_INE":"5690395085-D"}},{"type":"Feature","id":20,"geometry":{"type":"Point","coordinates":[-63.677377743543616,-16.953343582580032]},"properties":{"FID":20,"OBJECTID":2244,"NOM_CEN_PO":"GALILEA","COD_INE":"5717215778-D"}},{"type":"Feature","id":21,"geometry":{"type":"Point","coordinates":[-63.780995763117005,-16.947454202092729]},"properties":{"FID":21,"OBJECTID":2252,"NOM_CEN_PO":"SAN LUIS","COD_INE":"5711951886-D"}},{"type":"Feature","id":22,"geometry":{"type":"Point","coordinates":[-63.927700752255475,-16.941811487625841]},"properties":{"FID":22,"OBJECTID":2258,"NOM_CEN_PO":"NUEVA AMERICA","COD_INE":"5703184721-D"}},{"type":"Feature","id":23,"geometry":{"type":"Point","coordinates":[-63.839339084944356,-16.935807650129107]},"properties":{"FID":23,"OBJECTID":2266,"NOM_CEN_PO":"MONTE RICO","COD_INE":"5714865944-D"}},{"type":"Feature","id":24,"geometry":{"type":"Point","coordinates":[-63.899757668587476,-16.937545887963214]},"properties":{"FID":24,"OBJECTID":2280,"NOM_CEN_PO":"LA CUARTA","COD_INE":"5727768273-D"}},{"type":"Feature","id":25,"geometry":{"type":"Point","coordinates":[-63.899462208918976,-16.901168789263068]},"properties":{"FID":25,"OBJECTID":2301,"NOM_CEN_PO":"4 DE MARZO","COD_INE":"5733699649-D"}},{"type":"Feature","id":26,"geometry":{"type":"Point","coordinates":[-63.884600500689317,-16.89995927816301]},"properties":{"FID":26,"OBJECTID":2305,"NOM_CEN_PO":"FAJA QUINTA - SEXTA","COD_INE":"5738454276-D"}},{"type":"Feature","id":27,"geometry":{"type":"Point","coordinates":[-63.647670280085606,-16.899467340122271]},"properties":{"FID":27,"OBJECTID":2307,"NOM_CEN_PO":"JERUSALEN","COD_INE":"5756679297-D"}},{"type":"Feature","id":28,"geometry":{"type":"Point","coordinates":[-63.777821422854402,-16.899407019117291]},"properties":{"FID":28,"OBJECTID":2308,"NOM_CEN_PO":"16 DE JULIO","COD_INE":"5745249626-D"}},{"type":"Feature","id":29,"geometry":{"type":"Point","coordinates":[-63.722656020290003,-16.895636921805362]},"properties":{"FID":29,"OBJECTID":2310,"NOM_CEN_PO":"SAN MIGUEL","COD_INE":"5752647403-D"}},{"type":"Feature","id":30,"geometry":{"type":"Point","coordinates":[-63.766200561892845,-16.890769311402607]},"properties":{"FID":30,"OBJECTID":2317,"NOM_CEN_PO":"SIND NUEVO HORIZONTE","COD_INE":"5752201147-D"}},{"type":"Feature","id":31,"geometry":{"type":"Point","coordinates":[-63.536964175925789,-16.885495861966263]},"properties":{"FID":31,"OBJECTID":2327,"NOM_CEN_PO":"EL ASTILLERO","COD_INE":"5776263682-D"}},{"type":"Feature","id":32,"geometry":{"type":"Point","coordinates":[-63.831538769363284,-16.8813771620338]},"properties":{"FID":32,"OBJECTID":2350,"NOM_CEN_PO":"LOS ANDES","COD_INE":"5763435566-D"}},{"type":"Feature","id":33,"geometry":{"type":"Point","coordinates":[-63.750916384628226,-16.865433602306325]},"properties":{"FID":33,"OBJECTID":2351,"NOM_CEN_PO":"COCHABAMBITA","COD_INE":"5765445710-D"}},{"type":"Feature","id":34,"geometry":{"type":"Point","coordinates":[-63.798806305590688,-16.849993376028806]},"properties":{"FID":34,"OBJECTID":2367,"NOM_CEN_PO":"COPACABANA","COD_INE":"5777563550-D"}},{"type":"Feature","id":35,"geometry":{"type":"Point","coordinates":[-63.783277087305805,-16.847199741797624]},"properties":{"FID":35,"OBJECTID":2373,"NOM_CEN_PO":"AGRUPACION BERLINCITO","COD_INE":"5780940304-D"}},{"type":"Feature","id":36,"geometry":{"type":"Point","coordinates":[-63.891817908286498,-16.844768439596464]},"properties":{"FID":36,"OBJECTID":2374,"NOM_CEN_PO":"AZURDUY","COD_INE":"5773495693-D"}},{"type":"Feature","id":37,"geometry":{"type":"Point","coordinates":[-63.742264959912404,-16.8413819023163]},"properties":{"FID":37,"OBJECTID":2380,"NOM_CEN_PO":"EL RECREO","COD_INE":"5788297280-D"}},{"type":"Feature","id":38,"geometry":{"type":"Point","coordinates":[-63.577798261304395,-16.840121176211994]},"properties":{"FID":38,"OBJECTID":2384,"NOM_CEN_PO":"CUATRO OJOS PIRAI","COD_INE":"5803508575-D"}},{"type":"Feature","id":39,"geometry":{"type":"Point","coordinates":[-63.699785918397708,-16.839863752190695]},"properties":{"FID":39,"OBJECTID":2385,"NOM_CEN_PO":"RIO NUEVO","COD_INE":"5792983261-D"}},{"type":"Feature","id":40,"geometry":{"type":"Point","coordinates":[-63.829684241145515,-16.838833176105425]},"properties":{"FID":40,"OBJECTID":2387,"NOM_CEN_PO":"VILLA IMPERIAL","COD_INE":"5782719204-D"}},{"type":"Feature","id":41,"geometry":{"type":"Point","coordinates":[-63.81126314062135,-16.834120655715481]},"properties":{"FID":41,"OBJECTID":2394,"NOM_CEN_PO":"SIND 12 DE OCTUBRE","COD_INE":"5787514756-D"}},{"type":"Feature","id":42,"geometry":{"type":"Point","coordinates":[-63.829877778161517,-16.830166667388312]},"properties":{"FID":42,"OBJECTID":2398,"NOM_CEN_PO":"LAGUNILLA","COD_INE":"5744716874-D"}},{"type":"Feature","id":43,"geometry":{"type":"Point","coordinates":[-63.591439380433087,-16.786519911776963]},"properties":{"FID":43,"OBJECTID":2444,"NOM_CEN_PO":"SIND EL REMANZO","COD_INE":"5839054502-D"}},{"type":"Feature","id":44,"geometry":{"type":"Point","coordinates":[-63.820027154346519,-16.785568716698265]},"properties":{"FID":44,"OBJECTID":2445,"NOM_CEN_PO":"SIND BERLIN I","COD_INE":"5820520728-D"}},{"type":"Feature","id":45,"geometry":{"type":"Point","coordinates":[-63.693400649869375,-16.7771400630009]},"properties":{"FID":45,"OBJECTID":2454,"NOM_CEN_PO":"VILLA 14 DE SEPTIEMBRE","COD_INE":"5836810723-D"}},{"type":"Feature","id":46,"geometry":{"type":"Point","coordinates":[-63.944444501640817,-16.765044069000055]},"properties":{"FID":46,"OBJECTID":2469,"NOM_CEN_PO":"24 DE SEPTIEMBRE","COD_INE":"5825052814-D"}},{"type":"Feature","id":47,"geometry":{"type":"Point","coordinates":[-63.905636842429885,-16.763259940852436]},"properties":{"FID":47,"OBJECTID":2474,"NOM_CEN_PO":"SIND TIERRAS NUEVAS","COD_INE":"5829303509-D"}},{"type":"Feature","id":48,"geometry":{"type":"Point","coordinates":[-63.993419247692998,-16.752547126966078]},"properties":{"FID":48,"OBJECTID":2484,"NOM_CEN_PO":"CURICHON","COD_INE":"5854572727-D"}},{"type":"Feature","id":49,"geometry":{"type":"Point","coordinates":[-63.819960415340972,-16.752486958961072]},"properties":{"FID":49,"OBJECTID":2485,"NOM_CEN_PO":"SIND BERLIN II","COD_INE":"5843581214-D"}},{"type":"Feature","id":50,"geometry":{"type":"Point","coordinates":[-63.692939332831202,-16.750801380821599]},"properties":{"FID":50,"OBJECTID":2490,"NOM_CEN_PO":"SANTO DOMINGO","COD_INE":"5855082374-D"}},{"type":"Feature","id":51,"geometry":{"type":"Point","coordinates":[-63.832186929352588,-16.730229805119507]},"properties":{"FID":51,"OBJECTID":2512,"NOM_CEN_PO":"6 DE ENERO","COD_INE":"5861519605-D"}},{"type":"Feature","id":52,"geometry":{"type":"Point","coordinates":[-63.873639515782429,-16.718004675107977]},"properties":{"FID":52,"OBJECTID":2525,"NOM_CEN_PO":"SAN JORGE","COD_INE":"5863507688-D"}},{"type":"Feature","id":53,"geometry":{"type":"Point","coordinates":[-63.791397972977734,-16.715000539859432]},"properties":{"FID":53,"OBJECTID":2528,"NOM_CEN_PO":"VIRGEN DE COPACABANA","COD_INE":"5872019339-D"}},{"type":"Feature","id":54,"geometry":{"type":"Point","coordinates":[-63.855286727263888,-16.690377018822062]},"properties":{"FID":54,"OBJECTID":2553,"NOM_CEN_PO":"SIND VIRGEN DE COTOCA","COD_INE":"5884308484-D"}},{"type":"Feature","id":55,"geometry":{"type":"Point","coordinates":[-63.72593789856154,-16.687093112550372]},"properties":{"FID":55,"OBJECTID":2559,"NOM_CEN_PO":"ESTRELLA DEL NORTE","COD_INE":"5896690735-D"}},{"type":"Feature","id":56,"geometry":{"type":"Point","coordinates":[-63.861534069780816,-16.678864665869526]},"properties":{"FID":56,"OBJECTID":2570,"NOM_CEN_PO":"12 DE AGOSTO","COD_INE":"5891924891-D"}},{"type":"Feature","id":57,"geometry":{"type":"Point","coordinates":[-63.928107558289128,-16.67422726048585]},"properties":{"FID":57,"OBJECTID":2575,"NOM_CEN_PO":"LOS BIBOSIS","COD_INE":"5590596924-D"}},{"type":"Feature","id":58,"geometry":{"type":"Point","coordinates":[-63.866410765184298,-16.671832130287669]},"properties":{"FID":58,"OBJECTID":2582,"NOM_CEN_PO":"LAS PAVAS","COD_INE":"5896504420-D"}},{"type":"Feature","id":59,"geometry":{"type":"Point","coordinates":[-63.859190024586837,-16.67067117819164]},"properties":{"FID":59,"OBJECTID":2584,"NOM_CEN_PO":"SIND LAS PAVAS","COD_INE":"5897527713-D"}},{"type":"Feature","id":60,"geometry":{"type":"Point","coordinates":[-63.822729867570104,-16.662058583478995]},"properties":{"FID":60,"OBJECTID":2591,"NOM_CEN_PO":"SIND AGUAS NEGRAS","COD_INE":"5906681064-D"}},{"type":"Feature","id":61,"geometry":{"type":"Point","coordinates":[-63.892391895333958,-16.652772137710656]},"properties":{"FID":61,"OBJECTID":2605,"NOM_CEN_PO":"SIND SAN ANDRES","COD_INE":"5908002172-D"}},{"type":"Feature","id":62,"geometry":{"type":"Point","coordinates":[-63.971540967882788,-16.650323587508069]},"properties":{"FID":62,"OBJECTID":2607,"NOM_CEN_PO":"SIND SAN PEDRO","COD_INE":"5903987555-D"}},{"type":"Feature","id":63,"geometry":{"type":"Point","coordinates":[-63.731799925046573,-16.648118371325609]},"properties":{"FID":63,"OBJECTID":2609,"NOM_CEN_PO":"27 DE MAYO IQUICHOMO","COD_INE":"5923456987-D"}},{"type":"Feature","id":64,"geometry":{"type":"Point","coordinates":[-63.875097347903022,-16.647756896295675]},"properties":{"FID":64,"OBJECTID":2611,"NOM_CEN_PO":"2 DE AGOSTO","COD_INE":"5912818992-D"}},{"type":"Feature","id":65,"geometry":{"type":"Point","coordinates":[-63.747509194346321,-16.626515779538181]},"properties":{"FID":65,"OBJECTID":2646,"NOM_CEN_PO":"SAN SALVADOR","COD_INE":"5937376773-D"}},{"type":"Feature","id":66,"geometry":{"type":"Point","coordinates":[-63.847798553644338,-16.615133215596359]},"properties":{"FID":66,"OBJECTID":2655,"NOM_CEN_PO":"SIND VIRGEN DE COPACABANA","COD_INE":"5937854628-D"}},{"type":"Feature","id":67,"geometry":{"type":"Point","coordinates":[-63.853698231132455,-16.607007720924059]},"properties":{"FID":67,"OBJECTID":2665,"NOM_CEN_PO":"SIND BOLIVAR","COD_INE":"5965022460-D"}},{"type":"Feature","id":68,"geometry":{"type":"Point","coordinates":[-63.785092705456009,-16.601759701489868]},"properties":{"FID":68,"OBJECTID":2671,"NOM_CEN_PO":"SIND EL CARMEN","COD_INE":"5951930767-D"}},{"type":"Feature","id":69,"geometry":{"type":"Point","coordinates":[-63.972490314961362,-16.600538446388782]},"properties":{"FID":69,"OBJECTID":2674,"NOM_CEN_PO":"VIRGEN DE GUADALUPE","COD_INE":"5982471616-D"}},{"type":"Feature","id":70,"geometry":{"type":"Point","coordinates":[-63.894979866548113,-16.591083695606528]},"properties":{"FID":70,"OBJECTID":2681,"NOM_CEN_PO":"SIND FLORA Y FAUNA","COD_INE":"5951455811-D"}},{"type":"Feature","id":71,"geometry":{"type":"Point","coordinates":[-63.894638285519875,-16.590190305532587]},"properties":{"FID":71,"OBJECTID":2683,"NOM_CEN_PO":"SIND VILLA PARAISO","COD_INE":"5952113644-D"}},{"type":"Feature","id":72,"geometry":{"type":"Point","coordinates":[-63.844043418333627,-16.568814763763953]},"properties":{"FID":72,"OBJECTID":2699,"NOM_CEN_PO":"MENONITA","COD_INE":"5970878649-D"}},{"type":"Feature","id":73,"geometry":{"type":"Point","coordinates":[-63.969303037697614,-16.56306931728858]},"properties":{"FID":73,"OBJECTID":2704,"NOM_CEN_PO":"MONTERREY","COD_INE":"5966208198-D"}},{"type":"Feature","id":74,"geometry":{"type":"Point","coordinates":[-63.977805306401137,-16.545765429856885]},"properties":{"FID":74,"OBJECTID":2721,"NOM_CEN_PO":"CINCO","COD_INE":"5977991346-D"}},{"type":"Feature","id":75,"geometry":{"type":"Point","coordinates":[-63.900835601032611,-16.539070686302921]},"properties":{"FID":75,"OBJECTID":2728,"NOM_CEN_PO":"21 DE MARZO","COD_INE":"5988002614-D"}},{"type":"Feature","id":76,"geometry":{"type":"Point","coordinates":[-63.90166499710125,-16.53000097355249]},"properties":{"FID":76,"OBJECTID":2736,"NOM_CEN_PO":"3 DE MAYO","COD_INE":"5993978268-D"}},{"type":"Feature","id":77,"geometry":{"type":"Point","coordinates":[-63.937126701035368,-16.512223757081642]},"properties":{"FID":77,"OBJECTID":2751,"NOM_CEN_PO":"DOS DE JUNIO","COD_INE":"6004791731-D"}},{"type":"Feature","id":78,"geometry":{"type":"Point","coordinates":[-64.017637982696897,-16.487672535050251]},"properties":{"FID":78,"OBJECTID":2766,"NOM_CEN_PO":"SOBERANIA","COD_INE":"6017046029-D"}},{"type":"Feature","id":79,"geometry":{"type":"Point","coordinates":[-63.972512858963228,-16.48722731301342]},"properties":{"FID":79,"OBJECTID":2767,"NOM_CEN_PO":"SAN JUAN DEL PIRAI","COD_INE":"6019988297-D"}},{"type":"Feature","id":80,"geometry":{"type":"Point","coordinates":[-64.000272786260098,-16.457222770530791]},"properties":{"FID":80,"OBJECTID":2785,"NOM_CEN_PO":"SAN JUAN DEL CHORE","COD_INE":"6040059445-D"}},{"type":"Feature","id":81,"geometry":{"type":"Point","coordinates":[-63.969304209697725,-16.455203761363748]},"properties":{"FID":81,"OBJECTID":2786,"NOM_CEN_PO":"4 DE JUNIO","COD_INE":"6043521301-D"}},{"type":"Feature","id":82,"geometry":{"type":"Point","coordinates":[-63.866059040155221,-16.40556757425685]},"properties":{"FID":82,"OBJECTID":2823,"NOM_CEN_PO":"CANANDOA","COD_INE":"6087434345-D"}},{"type":"Feature","id":83,"geometry":{"type":"Point","coordinates":[-63.999147578166969,-16.392067075139835]},"properties":{"FID":83,"OBJECTID":2833,"NOM_CEN_PO":"10 DE NOVIEMBRE","COD_INE":"6087151343-D"}},{"type":"Feature","id":84,"geometry":{"type":"Point","coordinates":[-63.87632720600476,-16.39040170000203]},"properties":{"FID":84,"OBJECTID":2834,"NOM_CEN_PO":"MONTE GRANDE","COD_INE":"6096350689-D"}},{"type":"Feature","id":85,"geometry":{"type":"Point","coordinates":[-63.962000258093383,-16.351772994805856]},"properties":{"FID":85,"OBJECTID":2867,"NOM_CEN_PO":"MIRAFLORES","COD_INE":"6118546171-D"}},{"type":"Feature","id":86,"geometry":{"type":"Point","coordinates":[-63.906185007475244,-16.345941136323347]},"properties":{"FID":86,"OBJECTID":2870,"NOM_CEN_PO":"GUADALUPE","COD_INE":"6126130739-D"}},{"type":"Feature","id":87,"geometry":{"type":"Point","coordinates":[-63.970234420774716,-16.283449396152719]},"properties":{"FID":87,"OBJECTID":2926,"NOM_CEN_PO":"LA ISLA","COD_INE":"6167661283-D"}},{"type":"Feature","id":88,"geometry":{"type":"Point","coordinates":[-63.978714456476325,-16.245880120044262]},"properties":{"FID":88,"OBJECTID":2974,"NOM_CEN_PO":"LOS LIMOS","COD_INE":"6194571776-D"}},{"type":"Feature","id":89,"geometry":{"type":"Point","coordinates":[-64.042274375735303,-16.181635531728602]},"properties":{"FID":89,"OBJECTID":3023,"NOM_CEN_PO":"PETA GRANDE","COD_INE":"6238319315-D"}},{"type":"Feature","id":90,"geometry":{"type":"Point","coordinates":[-63.953214735355147,-16.733720873255759]},"properties":{"FID":90,"OBJECTID":2746,"NOM_CEN_PO":"PLANCHADA 2","COD_INE":"5996037631-D"}}]}